$GPGGA,111340.000,4409.1314,N,01215.8659,E,1,7,1.14,16.9,M,46.6,M,,*68
$GPRMC,111340.000,A,4409.1314,N,01215.8659,E,0.87,345.03,050408,,,A*64
$GPGGA,111341.000,4409.1314,N,01215.8658,E,1,7,1.14,16.8,M,46.6,M,,*69
$GPRMC,111341.000,A,4409.1314,N,01215.8658,E,0.87,345.03,050408,,,A*64
$PMTK001,-1,0*1F
$GPGGA,111342.000,4409.1313,N,01215.8658,E,1,7,1.14,16.8,M,46.6,M,,*6D
$GPGSA,A,3,17,13,23,32,11,20,31,,,,,,1.41,1.14,0.82*0C
$GPGSV,3,1,10,20,73,311,30,11,69,167,40,23,48,198,44,17,35,294,28*7F
$GPGSV,3,2,10,31,25,076,41,32,22,070,37,13,11,209,26,14,02,039,*7A
$GPGSV,3,3,10,04,01,307,,35,,,*4F
$GPRMC,111342.000,A,4409.1313,N,01215.8658,E,0.87,345.03,050408,,,A*60
$GPGGA,111343.000,4409.1313,N,01215.8657,E,1,7,1.14,16.8,M,46.6,M,,*63
$GPRMC,111343.000,A,4409.1313,N,01215.8657,E,0.87,345.03,050408,,,A*6E
$GPGGA,111344.000,4409.1313,N,01215.8658,E,1,7,1.14,16.8,M,46.6,M,,*6B
$GPRMC,111344.000,A,4409.1313,N,01215.8658,E,0.87,345.03,050408,,,A*66
$GPGGA,111345.000,4409.1313,N,01215.8660,E,1,7,1.14,16.7,M,46.6,M,,*6E
$GPGSA,A,3,17,13,23,32,11,20,31,,,,,,1.41,1.14,0.82*0C
$GPGSV,3,1,10,20,73,311,32,11,69,167,41,23,48,199,44,17,35,294,30*74
$GPGSV,3,2,10,37,32,167,,31,25,076,38,32,22,070,27,13,11,209,26*7D
$GPGSV,3,3,10,14,02,039,,04,01,307,*74
$GPRMC,111345.000,A,4409.1313,N,01215.8660,E,1.49,345.03,050408,,,A*6F
$GPGGA,111346.000,4409.1308,N,01215.8675,E,1,7,1.14,17.0,M,46.6,M,,*65
$GPRMC,111346.000,A,4409.1308,N,01215.8675,E,1.50,75.31,050408,,,A*5B
$GPGGA,111347.000,4409.1302,N,01215.8689,E,1,7,1.14,17.8,M,46.6,M,,*65
$GPRMC,111347.000,A,4409.1302,N,01215.8689,E,1.56,75.31,050408,,,A*55
$GPGGA,111348.000,4409.1296,N,01215.8700,E,1,7,1.14,17.9,M,46.6,M,,*67
$GPGSA,A,3,17,13,23,32,11,20,31,,,,,,1.41,1.14,0.82*0C
$GPGSV,3,1,10,20,73,311,35,11,69,167,42,23,48,199,45,39,37,162,*76
$GPGSV,3,2,10,17,35,294,29,31,25,076,43,32,22,070,30,13,11,209,29*79
$GPGSV,3,3,10,14,02,039,,04,01,307,*74
$GPRMC,111348.000,A,4409.1296,N,01215.8700,E,0.81,75.31,050408,,,A*5D
$GPGGA,111349.000,4409.1288,N,01215.8705,E,1,7,1.15,17.8,M,46.6,M,,*6C
$GPRMC,111349.000,A,4409.1288,N,01215.8705,E,0.80,75.31,050408,,,A*57
$GPGGA,111350.000,4409.1283,N,01215.8709,E,1,7,1.14,17.7,M,46.6,M,,*6D
$GPRMC,111350.000,A,4409.1283,N,01215.8709,E,0.80,75.31,050408,,,A*58
$GPGGA,111351.000,4409.1276,N,01215.8715,E,1,7,1.14,17.6,M,46.6,M,,*6A
$GPGSA,A,3,17,13,23,32,11,20,31,,,,,,1.41,1.14,0.82*0C
$GPGSV,3,1,10,20,73,311,37,11,69,167,40,23,48,199,45,39,37,162,28*7C
$GPGSV,3,2,10,17,35,294,31,31,25,076,32,32,22,070,32,13,11,209,32*7E
$GPGSV,3,3,10,14,02,039,,04,01,307,*74
$GPRMC,111351.000,A,4409.1276,N,01215.8715,E,0.80,75.31,050408,,,A*5E
$GPGGA,111352.000,4409.1270,N,01215.8718,E,1,7,1.14,17.7,M,46.6,M,,*63
$GPRMC,111352.000,A,4409.1270,N,01215.8718,E,0.80,75.31,050408,,,A*56
$GPGGA,111353.000,4409.1270,N,01215.8718,E,1,7,1.14,17.7,M,46.6,M,,*62
$GPRMC,111353.000,A,4409.1270,N,01215.8718,E,0.80,75.31,050408,,,A*57
$GPGGA,111354.000,4409.1270,N,01215.8719,E,1,7,1.14,17.7,M,46.6,M,,*64
$GPGSA,A,3,17,13,23,32,11,20,31,,,,,,1.41,1.14,0.82*0C
$GPGSV,3,1,10,20,73,311,37,11,69,167,39,23,48,199,45,39,37,162,30*7B
$GPGSV,3,2,10,17,35,294,31,31,25,075,32,32,22,070,31,13,11,209,34*78
$GPGSV,3,3,10,14,02,039,,04,01,307,*74
$GPRMC,111354.000,A,4409.1270,N,01215.8719,E,0.80,75.31,050408,,,A*51
$GPGGA,111355.000,4409.1270,N,01215.8718,E,1,7,1.14,17.7,M,46.6,M,,*64
$GPRMC,111355.000,A,4409.1270,N,01215.8718,E,0.80,75.31,050408,,,A*51
$GPGGA,111356.000,4409.1270,N,01215.8717,E,1,7,1.14,17.8,M,46.6,M,,*67
$GPRMC,111356.000,A,4409.1270,N,01215.8717,E,0.80,75.31,050408,,,A*5D
$GPGGA,111357.000,4409.1270,N,01215.8716,E,1,7,1.14,17.8,M,46.6,M,,*67
$GPGSA,A,3,17,13,23,32,11,20,31,,,,,,1.41,1.14,0.82*0C
$GPGSV,3,1,10,20,73,311,38,11,69,167,39,23,48,199,45,39,37,162,29*7C
$GPGSV,3,2,10,17,35,294,31,31,25,075,31,32,22,070,29,13,11,209,34*72
$GPGSV,3,3,10,14,02,039,,04,01,307,*74
$GPRMC,111357.000,A,4409.1270,N,01215.8716,E,0.81,75.31,050408,,,A*5C
$GPGGA,111358.000,4409.1269,N,01215.8715,E,1,7,1.14,17.8,M,46.6,M,,*63
$GPRMC,111358.000,A,4409.1269,N,01215.8715,E,0.81,75.31,050408,,,A*58
$GPGGA,111359.000,4409.1269,N,01215.8713,E,1,7,1.14,17.8,M,46.6,M,,*64
$GPRMC,111359.000,A,4409.1269,N,01215.8713,E,0.81,75.31,050408,,,A*5F
$GPGGA,111400.000,4409.1269,N,01215.8712,E,1,7,1.15,17.9,M,46.6,M,,*6E
$GPGSA,A,3,17,13,23,32,11,20,31,,,,,,1.41,1.15,0.82*0D
$GPGSV,3,1,10,20,73,311,38,11,69,167,40,23,48,199,45,39,37,162,29*72
$GPGSV,3,2,10,17,35,294,32,31,25,075,29,32,22,070,29,13,11,209,34*78
$GPGSV,3,3,10,14,02,039,,04,01,307,*74
$GPRMC,111400.000,A,4409.1269,N,01215.8712,E,0.81,75.31,050408,,,A*55
$GPGGA,111401.000,4409.1268,N,01215.8710,E,1,6,1.23,17.9,M,46.6,M,,*68
$GPRMC,111401.000,A,4409.1268,N,01215.8710,E,0.81,75.31,050408,,,A*57
$GPGGA,111402.000,4409.1264,N,01215.8712,E,1,6,1.23,18.0,M,46.6,M,,*63
$GPRMC,111402.000,A,4409.1264,N,01215.8712,E,0.81,75.31,050408,,,A*5A
$GPGGA,111403.000,4409.1258,N,01215.8709,E,1,7,1.15,18.1,M,46.6,M,,*62
$GPGSA,A,3,17,13,23,32,11,20,31,,,,,,1.41,1.15,0.83*0C
$GPGSV,3,1,10,20,73,311,36,11,69,167,40,23,48,199,45,39,37,162,29*7C
$GPGSV,3,2,10,17,35,294,32,31,25,075,32,32,22,070,36,13,11,209,33*7B
$GPGSV,3,3,10,14,02,039,,04,01,307,*74
$GPRMC,111403.000,A,4409.1258,N,01215.8709,E,0.81,75.31,050408,,,A*5E
$GPGGA,111404.000,4409.1250,N,01215.8714,E,1,7,1.15,18.0,M,46.6,M,,*60
$GPRMC,111404.000,A,4409.1250,N,01215.8714,E,1.95,143.70,050408,,,A*68
$GPGGA,111405.000,4409.1245,N,01215.8727,E,1,7,1.15,17.8,M,46.6,M,,*62
$GPRMC,111405.000,A,4409.1245,N,01215.8727,E,2.31,141.03,050408,,,A*66
$GPGGA,111406.000,4409.1240,N,01215.8731,E,1,7,1.15,17.9,M,46.6,M,,*62
$GPGSA,A,3,17,13,23,32,11,20,31,,,,,,1.41,1.15,0.83*0C
$GPGSV,3,1,10,20,73,311,28,11,69,167,38,23,48,199,45,39,37,162,28*7D
$GPGSV,3,2,10,17,35,294,28,31,25,075,35,32,22,070,36,13,11,209,32*76
$GPGSV,3,3,10,14,02,039,,04,01,307,*74
$GPRMC,111406.000,A,4409.1240,N,01215.8731,E,2.58,140.25,050408,,,A*6D
$GPGGA,111407.000,4409.1236,N,01215.8736,E,1,7,1.15,17.9,M,46.6,M,,*65
$GPRMC,111407.000,A,4409.1236,N,01215.8736,E,2.85,141.57,050408,,,A*6E
$GPGGA,111408.000,4409.1231,N,01215.8742,E,1,7,1.15,17.9,M,46.6,M,,*6E
$GPRMC,111408.000,A,4409.1231,N,01215.8742,E,3.91,140.69,050408,,,A*6D
$GPGGA,111409.000,4409.1221,N,01215.8754,E,1,7,1.17,17.9,M,46.6,M,,*6B
$GPGSA,A,3,17,13,23,32,11,20,31,,,,,,1.87,1.17,1.46*0C
$GPGSV,3,1,10,20,73,311,27,11,69,167,38,23,48,199,45,39,37,162,28*72
$GPGSV,3,2,10,17,35,294,25,31,25,075,35,32,22,070,36,13,11,209,32*7B
$GPGSV,3,3,10,14,02,039,,04,01,307,*74
$GPRMC,111409.000,A,4409.1221,N,01215.8754,E,4.44,137.95,050408,,,A*66
$GPGGA,111410.000,4409.1211,N,01215.8762,E,1,7,1.17,18.0,M,46.6,M,,*63
$GPRMC,111410.000,A,4409.1211,N,01215.8762,E,4.61,140.51,050408,,,A*67
$GPGGA,111411.000,4409.1210,N,01215.8766,E,1,7,1.15,18.5,M,46.6,M,,*60
$GPRMC,111411.000,A,4409.1210,N,01215.8766,E,4.66,139.50,050408,,,A*6B
$GPGGA,111412.000,4409.1201,N,01215.8774,E,1,7,1.17,19.1,M,46.6,M,,*67
$GPGSA,A,3,17,13,23,32,11,20,31,,,,,,1.87,1.17,1.46*0C
$GPGSV,3,1,10,20,73,311,30,11,69,167,38,23,48,199,44,39,37,162,28*75
$GPGSV,3,2,10,17,35,294,24,31,25,075,39,32,22,070,35,13,11,209,32*75
$GPGSV,3,3,10,14,02,039,,04,01,307,*74
$GPRMC,111412.000,A,4409.1201,N,01215.8774,E,4.86,139.05,050408,,,A*65
$GPGGA,111413.000,4409.1196,N,01215.8779,E,1,7,1.17,19.4,M,46.6,M,,*63
$GPRMC,111413.000,A,4409.1196,N,01215.8779,E,4.48,139.00,050408,,,A*63
$GPGGA,111414.000,4409.1194,N,01215.8782,E,1,7,1.17,19.9,M,46.6,M,,*6F
$GPRMC,111414.000,A,4409.1194,N,01215.8782,E,4.52,140.10,050408,,,A*66
$GPGGA,111415.000,4409.1201,N,01215.8771,E,1,7,1.15,20.3,M,46.6,M,,*6F
$GPGSA,A,3,17,13,23,32,11,20,31,,,,,,1.41,1.15,0.83*0C
$GPGSV,3,1,10,20,73,312,30,11,69,167,39,23,48,199,44,39,37,162,28*77
$GPGSV,3,2,10,17,35,294,31,31,25,075,37,32,22,070,33,13,11,209,33*78
$GPGSV,3,3,10,14,02,039,,04,01,307,*74
$GPRMC,111415.000,A,4409.1201,N,01215.8771,E,3.38,151.75,050408,,,A*6C
$GPGGA,111416.000,4409.1201,N,01215.8766,E,1,7,1.15,20.4,M,46.6,M,,*6D
$GPRMC,111416.000,A,4409.1201,N,01215.8766,E,3.02,151.90,050408,,,A*6B
$GPGGA,111417.000,4409.1202,N,01215.8764,E,1,7,1.15,20.7,M,46.6,M,,*6E
$GPRMC,111417.000,A,4409.1202,N,01215.8764,E,1.89,151.90,050408,,,A*6A
$GPGGA,111418.000,4409.1206,N,01215.8755,E,1,7,1.15,21.3,M,46.6,M,,*62
$GPGSA,A,3,17,13,23,32,11,20,31,,,,,,1.41,1.15,0.83*0C
$GPGSV,3,1,10,20,73,312,29,11,69,167,39,23,49,199,44,39,37,162,28*7E
$GPGSV,3,2,10,17,35,294,31,31,25,075,34,32,22,070,31,13,11,209,31*7B
$GPGSV,3,3,10,14,02,039,,04,01,307,*74
$GPRMC,111418.000,A,4409.1206,N,01215.8755,E,1.90,158.85,050408,,,A*66
$GPGGA,111419.000,4409.1210,N,01215.8756,E,1,7,1.15,21.8,M,46.6,M,,*6C
$GPRMC,111419.000,A,4409.1210,N,01215.8756,E,3.58,141.87,050408,,,A*6F
$GPGGA,111420.000,4409.1207,N,01215.8764,E,1,7,1.15,22.1,M,46.6,M,,*6B
$GPRMC,111420.000,A,4409.1207,N,01215.8764,E,3.62,145.10,050408,,,A*61
$GPGGA,111421.000,4409.1247,N,01215.8718,E,1,7,1.15,22.6,M,46.6,M,,*62
$GPGSA,A,3,17,13,23,32,11,20,31,,,,,,1.41,1.15,0.83*0C
$GPGSV,3,1,10,20,73,312,43,11,69,167,40,23,49,199,37,39,37,162,28*78
$GPGSV,3,2,10,17,35,294,40,31,25,075,35,32,22,070,21,13,11,209,25*78
$GPGSV,3,3,10,14,02,039,,04,01,307,*74
$GPRMC,111421.000,A,4409.1247,N,01215.8718,E,0.07,145.10,050408,,,A*6F
$GPGGA,111422.000,4409.1250,N,01215.8716,E,1,7,1.15,21.7,M,46.6,M,,*6B
$GPRMC,111422.000,A,4409.1250,N,01215.8716,E,0.02,145.10,050408,,,A*61
$GPGGA,111423.000,4409.1255,N,01215.8713,E,1,7,1.15,21.7,M,46.6,M,,*6A
$GPRMC,111423.000,A,4409.1255,N,01215.8713,E,0.02,145.10,050408,,,A*60
$GPGGA,111424.000,4409.1260,N,01215.8711,E,1,7,1.15,21.8,M,46.6,M,,*66
$GPGSA,A,3,17,13,23,32,11,20,31,,,,,,1.41,1.15,0.83*0C
$GPGSV,3,1,10,20,73,312,44,11,69,167,43,23,49,199,40,17,35,294,41*77
$GPGSV,3,2,10,31,25,075,36,32,22,070,33,44,17,117,,13,11,209,34*72
$GPGSV,3,3,10,14,02,039,,04,01,307,*74
$GPRMC,111424.000,A,4409.1260,N,01215.8711,E,0.02,145.10,050408,,,A*63
$GPGGA,111425.000,4409.1265,N,01215.8710,E,1,7,1.15,22.2,M,46.6,M,,*6A
$GPRMC,111425.000,A,4409.1265,N,01215.8710,E,0.01,145.10,050408,,,A*65
$GPGGA,111426.000,4409.1265,N,01215.8710,E,1,7,1.15,22.4,M,46.6,M,,*6F
$GPRMC,111426.000,A,4409.1265,N,01215.8710,E,0.01,145.10,050408,,,A*66
$GPGGA,111427.000,4409.1265,N,01215.8710,E,1,7,1.15,22.7,M,46.6,M,,*6D
$GPGSA,A,3,17,13,23,32,11,20,31,,,,,,1.41,1.15,0.83*0C
$GPGSV,3,1,10,20,73,312,44,11,69,167,44,23,49,199,40,17,35,294,41*70
$GPGSV,3,2,10,31,25,075,29,32,22,070,33,44,17,117,,13,11,209,34*7C
$GPGSV,3,3,10,14,02,039,,04,01,307,*74
$GPRMC,111427.000,A,4409.1265,N,01215.8710,E,0.02,145.10,050408,,,A*64
$GPGGA,111428.000,4409.1265,N,01215.8709,E,1,7,1.15,22.8,M,46.6,M,,*65
$GPRMC,111428.000,A,4409.1265,N,01215.8709,E,0.03,145.10,050408,,,A*62
$GPGGA,111429.000,4409.1265,N,01215.8708,E,1,7,1.15,23.0,M,46.6,M,,*6C
$GPRMC,111429.000,A,4409.1265,N,01215.8708,E,0.03,145.10,050408,,,A*62
$GPGGA,111430.000,4409.1265,N,01215.8708,E,1,7,1.15,23.1,M,46.6,M,,*65
$GPGSA,A,3,17,13,23,32,11,20,31,,,,,,1.41,1.15,0.83*0C
$GPGSV,3,1,10,20,73,312,44,11,69,167,44,23,49,199,41,17,35,294,39*7E
$GPGSV,3,2,10,37,32,167,,31,25,075,37,32,22,070,25,13,11,209,31*75
$GPGSV,3,3,10,14,02,039,,04,01,307,*74
$GPRMC,111430.000,A,4409.1265,N,01215.8708,E,1.51,145.10,050408,,,A*6C
$GPGGA,111431.000,4409.1266,N,01215.8714,E,1,7,1.15,23.0,M,46.6,M,,*6B
$GPRMC,111431.000,A,4409.1266,N,01215.8714,E,1.51,145.10,050408,,,A*63
$GPGGA,111432.000,4409.1270,N,01215.8727,E,1,7,1.15,22.7,M,46.6,M,,*69
$GPRMC,111432.000,A,4409.1270,N,01215.8727,E,2.68,75.56,050408,,,A*5E
$GPGGA,111433.000,4409.1273,N,01215.8745,E,1,7,1.15,22.5,M,46.6,M,,*6D
$GPGSA,A,3,17,13,23,32,11,20,31,,,,,,1.41,1.15,0.83*0C
$GPGSV,3,1,10,20,73,312,45,11,69,167,45,23,49,199,44,39,37,162,*75
$GPGSV,3,2,10,17,35,294,32,31,25,075,33,32,22,070,25,13,11,209,39*72
$GPGSV,3,3,10,14,02,039,,04,01,307,*74
$GPRMC,111433.000,A,4409.1273,N,01215.8745,E,4.75,89.35,050408,,,A*54
$GPGGA,111434.000,4409.1277,N,01215.8767,E,1,7,1.17,22.4,M,46.6,M,,*6D
$GPRMC,111434.000,A,4409.1277,N,01215.8767,E,4.94,86.44,050408,,,A*51
$GPGGA,111435.000,4409.1281,N,01215.8787,E,1,7,1.17,22.5,M,46.6,M,,*6A
$GPRMC,111435.000,A,4409.1281,N,01215.8787,E,5.43,81.87,050408,,,A*54
$GPGGA,111436.000,4409.1283,N,01215.8811,E,1,7,1.17,22.7,M,46.6,M,,*69
$GPGSA,A,3,17,13,23,32,11,20,31,,,,,,1.87,1.17,1.46*0C
$GPGSV,3,1,10,20,73,312,45,11,69,166,45,23,49,199,46,39,37,162,30*75
$GPGSV,3,2,10,17,35,294,25,31,25,075,35,32,22,070,27,13,11,209,22*7A
$GPGSV,3,3,10,14,02,039,,04,01,307,*74
$GPRMC,111436.000,A,4409.1283,N,01215.8811,E,5.65,90.41,050408,,,A*5B
$GPGGA,111437.000,4409.1282,N,01215.8835,E,1,7,1.17,23.0,M,46.6,M,,*69
$GPRMC,111437.000,A,4409.1282,N,01215.8835,E,5.84,97.65,050408,,,A*53
$GPGGA,111438.000,4409.1282,N,01215.8861,E,1,7,1.17,23.2,M,46.6,M,,*65
$GPRMC,111438.000,A,4409.1282,N,01215.8861,E,6.05,93.71,050408,,,A*56
$GPGGA,111439.000,4409.1283,N,01215.8885,E,1,7,1.17,23.6,M,46.6,M,,*6B
$GPGSA,A,3,17,13,23,32,11,20,31,,,,,,1.87,1.17,1.46*0C
$GPGSV,3,1,10,20,73,312,45,11,69,166,44,23,49,199,45,39,37,162,36*71
$GPGSV,3,2,10,17,35,294,28,31,25,075,36,32,22,070,30,13,11,209,21*71
$GPGSV,3,3,10,14,01,039,,04,01,307,*77
$GPRMC,111439.000,A,4409.1283,N,01215.8885,E,6.14,87.09,050408,,,A*56
$GPGGA,111440.000,4409.1286,N,01215.8911,E,1,6,1.56,23.6,M,46.6,M,,*68
$GPRMC,111440.000,A,4409.1286,N,01215.8911,E,5.84,78.00,050408,,,A*52
$GPGGA,111441.000,4409.1292,N,01215.8938,E,1,7,1.17,23.6,M,46.6,M,,*63
$GPRMC,111441.000,A,4409.1292,N,01215.8938,E,6.18,84.96,050408,,,A*57
$GPGGA,111442.000,4409.1295,N,01215.8960,E,1,7,1.17,23.1,M,46.6,M,,*6D
$GPGSA,A,3,17,13,23,32,11,20,31,,,,,,1.87,1.17,1.46*0C
$GPGSV,3,1,10,20,73,312,45,11,69,166,45,23,49,199,45,39,37,162,35*73
$GPGSV,3,2,10,17,35,293,41,31,25,075,37,32,22,070,33,13,11,209,23*79
$GPGSV,3,3,10,14,01,039,,04,01,307,*77
$GPRMC,111442.000,A,4409.1295,N,01215.8960,E,6.30,85.26,050408,,,A*5E
$GPGGA,111443.000,4409.1298,N,01215.8981,E,1,6,1.56,23.1,M,46.6,M,,*6A
$GPRMC,111443.000,A,4409.1298,N,01215.8981,E,6.26,83.55,050408,,,A*58
$GPGGA,111444.000,4409.1300,N,01215.9009,E,1,6,1.57,23.1,M,46.6,M,,*64
$GPRMC,111444.000,A,4409.1300,N,01215.9009,E,7.07,82.84,050408,,,A*58
$GPGGA,111445.000,4409.1304,N,01215.9039,E,1,7,1.17,23.3,M,46.6,M,,*65
$GPGSA,A,3,17,13,23,32,11,20,31,,,,,,1.87,1.17,1.46*0C
$GPGSV,3,1,10,20,74,312,45,11,69,166,45,23,49,199,45,17,35,293,41*74
$GPGSV,3,2,10,33,31,217,35,31,25,075,37,32,22,070,34,13,11,209,25*75
$GPGSV,3,3,10,14,01,039,,04,01,307,*77
$GPRMC,111445.000,A,4409.1304,N,01215.9039,E,7.70,83.93,050408,,,A*59
$GPGGA,111446.000,4409.1310,N,01215.9072,E,1,7,1.17,22.9,M,46.6,M,,*67
$GPRMC,111446.000,A,4409.1310,N,01215.9072,E,7.66,79.48,050408,,,A*54
$GPGGA,111447.000,4409.1312,N,01215.9099,E,1,6,1.57,22.4,M,46.6,M,,*69
$GPRMC,111447.000,A,4409.1312,N,01215.9099,E,8.13,81.94,050408,,,A*59
$GPGGA,111448.000,4409.1316,N,01215.9134,E,1,6,1.57,22.2,M,46.6,M,,*62
$GPGSA,A,3,17,23,32,11,20,31,,,,,,,2.95,1.57,2.50*0E
$GPGSV,3,1,10,20,74,312,45,11,69,166,45,23,49,199,45,17,35,293,44*71
$GPGSV,3,2,10,33,31,217,39,31,25,075,38,32,22,070,34,13,11,209,24*77
$GPGSV,3,3,10,14,01,039,,04,01,307,*77
$GPRMC,111448.000,A,4409.1316,N,01215.9134,E,7.96,80.85,050408,,,A*57
$GPGGA,111504.000,4409.1348,N,01215.9648,E,1,7,1.17,19.3,M,46.6,M,,*60
$GPRMC,111504.000,A,4409.1348,N,01215.9648,E,8.01,87.64,050408,,,A*50
$GPGGA,111505.000,4409.1347,N,01215.9676,E,1,6,1.25,19.4,M,46.6,M,,*64
$GPRMC,111505.000,A,4409.1347,N,01215.9676,E,6.95,89.65,050408,,,A*5F
$GPGGA,111506.000,4409.1348,N,01215.9704,E,1,7,1.17,19.6,M,46.6,M,,*6E
$GPGSA,A,3,17,13,23,32,11,20,31,,,,,,1.87,1.17,1.46*0C
$GPGSV,3,1,10,20,74,312,45,11,69,166,44,23,49,199,43,17,35,293,46*74
$GPGSV,3,2,10,31,25,075,33,32,22,070,24,13,11,209,20,04,02,307,*77
$GPGSV,3,3,10,14,01,039,,43,,,*41
$GPRMC,111506.000,A,4409.1348,N,01215.9704,E,7.10,86.36,050408,,,A*52
$GPGGA,111507.000,4409.1349,N,01215.9732,E,1,7,1.17,19.1,M,46.6,M,,*6C
$GPRMC,111507.000,A,4409.1349,N,01215.9732,E,7.04,86.98,050408,,,A*56
$GPGGA,111508.000,4409.1351,N,01215.9760,E,1,7,1.17,19.3,M,46.6,M,,*6F
$GPRMC,111508.000,A,4409.1351,N,01215.9760,E,6.78,87.44,050408,,,A*5D
$GPGGA,111509.000,4409.1350,N,01215.9788,E,1,7,1.17,19.5,M,46.6,M,,*6F
$GPGSA,A,3,17,13,23,32,11,20,31,,,,,,1.87,1.17,1.46*0C
$GPGSV,3,1,10,20,74,312,45,11,68,166,45,23,49,199,46,17,35,293,47*70
$GPGSV,3,2,10,31,25,075,35,32,22,070,26,13,11,209,21,04,02,307,*72
$GPGSV,3,3,10,14,01,039,16,46,,,*43
$GPRMC,111509.000,A,4409.1350,N,01215.9788,E,7.07,85.72,050408,,,A*55
$GPGGA,111511.000,4409.1354,N,01215.9848,E,1,7,1.17,19.6,M,46.6,M,,*62
$GPRMC,111511.000,A,4409.1354,N,01215.9848,E,7.47,85.77,050408,,,A*5A
$GPGGA,111512.000,4409.1354,N,01215.9877,E,1,7,1.17,19.3,M,46.6,M,,*68
$GPGSA,A,3,17,13,23,32,11,20,31,,,,,,1.87,1.17,1.46*0C
$GPGSV,3,1,10,20,74,312,45,11,68,166,46,23,49,199,46,17,35,293,34*77
$GPGSV,3,2,10,31,25,075,36,32,22,070,32,13,12,209,21,04,02,307,*77
$GPGSV,3,3,10,14,01,039,16,49,,,*4C
$GPRMC,111512.000,A,4409.1354,N,01215.9877,E,7.08,86.40,050408,,,A*59
$GPGGA,111513.000,4409.1354,N,01215.9901,E,1,7,1.17,19.0,M,46.6,M,,*6A
$GPRMC,111513.000,A,4409.1354,N,01215.9901,E,6.30,87.16,050408,,,A*50
$GPGGA,111514.000,4409.1358,N,01215.9926,E,1,7,1.17,18.5,M,46.6,M,,*60
$GPRMC,111514.000,A,4409.1358,N,01215.9926,E,6.76,78.28,050408,,,A*51
$GPGGA,111515.000,4409.1362,N,01215.9952,E,1,7,1.17,19.2,M,46.6,M,,*6D
$GPGSA,A,3,17,13,23,32,11,20,31,,,,,,1.87,1.17,1.46*0C
$GPGSV,3,1,10,20,74,312,45,11,68,166,46,23,49,199,45,39,37,162,*70
$GPGSV,3,2,10,17,35,293,39,31,25,075,33,32,22,070,28,13,12,209,34*7D
$GPGSV,3,3,10,04,02,307,,14,01,039,16*73
$GPRMC,111515.000,A,4409.1362,N,01215.9952,E,6.51,86.26,050408,,,A*50
$GPGGA,111516.000,4409.1360,N,01215.9976,E,1,7,1.17,18.9,M,46.6,M,,*60
$GPRMC,111516.000,A,4409.1360,N,01215.9976,E,6.35,92.33,050408,,,A*54
$GPGGA,111517.000,4409.1359,N,01216.0000,E,1,6,1.25,19.1,M,46.6,M,,*60
$GPRMC,111517.000,A,4409.1359,N,01216.0000,E,6.62,92.88,050408,,,A*5F
$GPGGA,111518.000,4409.1357,N,01216.0026,E,1,7,1.17,19.6,M,46.6,M,,*62
$GPGSA,A,3,17,13,23,32,11,20,31,,,,,,1.87,1.17,1.46*0C
$GPGSV,3,1,10,20,74,313,45,11,68,166,44,23,49,199,44,39,37,162,32*73
$GPGSV,3,2,10,17,35,293,46,31,25,075,30,32,22,070,24,13,12,209,39*77
$GPGSV,3,3,10,04,02,307,,14,01,039,16*73
$GPRMC,111518.000,A,4409.1357,N,01216.0026,E,6.64,90.60,050408,,,A*58
$GPGGA,111519.000,4409.1358,N,01216.0054,E,1,7,1.17,20.3,M,46.6,M,,*66
$GPRMC,111519.000,A,4409.1358,N,01216.0054,E,7.07,91.11,050408,,,A*50
$GPGGA,111520.000,4409.1357,N,01216.0087,E,1,7,1.17,20.0,M,46.6,M,,*6E
$GPRMC,111520.000,A,4409.1357,N,01216.0087,E,7.57,89.93,050408,,,A*5D
$GPGGA,111521.000,4409.1360,N,01216.0130,E,1,7,1.17,18.5,M,46.6,M,,*68
$GPGSA,A,3,17,13,23,32,11,20,31,,,,,,1.87,1.17,1.46*0C
$GPGSV,3,1,10,20,74,313,43,11,68,166,44,23,49,199,45,39,37,162,36*70
$GPGSV,3,2,10,17,35,293,30,31,25,075,39,32,22,070,28,13,12,209,39*73
$GPGSV,3,3,10,04,02,307,,14,01,039,15*70
$GPRMC,111521.000,A,4409.1360,N,01216.0130,E,8.76,90.44,050408,,,A*5B
$GPGGA,111522.000,4409.1365,N,01216.0161,E,1,7,1.17,17.5,M,46.6,M,,*65
$GPRMC,111522.000,A,4409.1365,N,01216.0161,E,7.97,87.02,050408,,,A*5D
$GPGGA,111523.000,4409.1369,N,01216.0194,E,1,7,1.17,16.9,M,46.6,M,,*6F
$GPRMC,111523.000,A,4409.1369,N,01216.0194,E,8.58,84.69,050408,,,A*58
$GPGGA,111524.000,4409.1372,N,01216.0230,E,1,7,1.17,16.7,M,46.6,M,,*61
$GPGSA,A,3,17,13,23,32,11,20,31,,,,,,1.88,1.17,1.46*03
$GPGSV,3,1,10,20,74,313,44,11,68,166,45,23,49,199,46,17,35,293,45*72
$GPGSV,3,2,10,33,31,217,30,31,25,075,38,32,22,070,32,13,12,209,27*78
$GPGSV,3,3,10,04,02,307,,14,01,039,15*70
$GPRMC,111524.000,A,4409.1372,N,01216.0230,E,8.50,84.66,050408,,,A*5F
$GPGGA,111525.000,4409.1373,N,01216.0261,E,1,7,1.17,17.0,M,46.6,M,,*63
$GPRMC,111525.000,A,4409.1373,N,01216.0261,E,8.14,82.24,050408,,,A*5B
$GPGGA,111526.000,4409.1377,N,01216.0291,E,1,7,1.17,16.8,M,46.6,M,,*62
$GPRMC,111526.000,A,4409.1377,N,01216.0291,E,8.06,84.12,050408,,,A*53
$GPGGA,111527.000,4409.1380,N,01216.0323,E,1,7,1.17,16.6,M,46.6,M,,*6D
$GPGSA,A,3,17,13,23,32,11,20,31,,,,,,1.88,1.17,1.47*02
$GPGSV,3,1,10,20,74,313,44,11,68,166,45,23,49,199,44,17,35,293,45*70
$GPGSV,3,2,10,33,31,217,40,31,25,075,38,32,22,070,34,13,12,209,26*78
$GPGSV,3,3,10,04,02,307,,14,01,039,16*73
$GPRMC,111527.000,A,4409.1380,N,01216.0323,E,7.98,83.27,050408,,,A*5B
$GPGGA,111528.000,4409.1382,N,01216.0354,E,1,7,1.17,16.7,M,46.6,M,,*61
$GPRMC,111528.000,A,4409.1382,N,01216.0354,E,7.98,84.95,050408,,,A*58
$GPGGA,111529.000,4409.1384,N,01216.0385,E,1,7,1.17,17.0,M,46.6,M,,*6C
$GPRMC,111529.000,A,4409.1384,N,01216.0385,E,8.42,82.38,050408,,,A*5A
$GPGGA,111530.000,4409.1386,N,01216.0417,E,1,7,1.17,16.2,M,46.6,M,,*69
$GPGSA,A,3,17,13,23,32,11,20,31,,,,,,1.88,1.17,1.47*02
$GPGSV,3,1,10,20,74,313,44,11,68,166,45,23,49,199,43,17,35,293,45*77
$GPGSV,3,2,10,33,31,217,39,31,25,075,38,32,22,070,34,13,12,209,34*75
$GPGSV,3,3,10,04,02,307,,14,01,039,16*73
$GPRMC,111530.000,A,4409.1386,N,01216.0417,E,8.05,83.42,050408,,,A*53
$GPGGA,111531.000,4409.1386,N,01216.0446,E,1,7,1.17,16.1,M,46.6,M,,*6F
$GPRMC,111531.000,A,4409.1386,N,01216.0446,E,7.60,88.79,050408,,,A*59
$GPGGA,111532.000,4409.1387,N,01216.0477,E,1,7,1.17,15.8,M,46.6,M,,*65
$GPRMC,111532.000,A,4409.1387,N,01216.0477,E,7.74,90.90,050408,,,A*52
$GPGGA,111533.000,4409.1387,N,01216.0509,E,1,7,1.17,16.2,M,46.6,M,,*65
$GPGSA,A,3,17,13,23,32,11,20,31,,,,,,1.88,1.17,1.47*02
$GPGSV,3,1,10,20,74,313,44,11,68,166,44,23,49,199,44,17,35,293,44*70
$GPGSV,3,2,10,31,25,075,35,32,22,070,30,44,17,117,,13,12,209,41*73
$GPGSV,3,3,10,04,02,307,,14,01,039,15*70
$GPRMC,111533.000,A,4409.1387,N,01216.0509,E,7.79,90.62,050408,,,A*5B
$GPGGA,111534.000,4409.1386,N,01216.0538,E,1,7,1.17,16.5,M,46.6,M,,*66
$GPRMC,111534.000,A,4409.1386,N,01216.0538,E,7.36,91.82,050408,,,A*5B
$GPGGA,111535.000,4409.1387,N,01216.0569,E,1,7,1.17,16.9,M,46.6,M,,*6E
$GPRMC,111535.000,A,4409.1387,N,01216.0569,E,8.06,87.79,050408,,,A*50
$GPGGA,111536.000,4409.1389,N,01216.0602,E,1,7,1.17,16.8,M,46.6,M,,*6C
$GPGSA,A,3,17,13,23,32,11,20,31,,,,,,1.88,1.17,1.47*02
$GPGSV,3,1,10,20,74,313,42,11,68,166,44,23,49,199,46,17,35,293,44*74
$GPGSV,3,2,10,31,25,075,34,32,22,070,27,13,12,209,37,04,02,307,*76
$GPGSV,3,3,10,14,01,039,15,34,,,*45
$GPRMC,111536.000,A,4409.1389,N,01216.0602,E,7.98,86.83,050408,,,A*5F
$GPGGA,111537.000,4409.1391,N,01216.0632,E,1,7,1.17,17.4,M,46.6,M,,*6A
$GPRMC,111537.000,A,4409.1391,N,01216.0632,E,7.51,88.04,050408,,,A*50
$GPGGA,111538.000,4409.1392,N,01216.0662,E,1,7,1.17,17.7,M,46.6,M,,*60
$GPRMC,111538.000,A,4409.1392,N,01216.0662,E,7.70,86.49,050408,,,A*5D
$GPGGA,111539.000,4409.1396,N,01216.0696,E,1,7,1.15,17.8,M,46.6,M,,*63
$GPGSA,A,3,17,13,23,32,11,20,31,,,,,,1.42,1.15,0.83*0F
$GPGSV,3,1,10,20,74,313,42,11,68,166,43,23,49,199,48,17,35,293,44*7D
$GPGSV,3,2,10,31,25,075,34,32,22,070,28,13,12,209,21,04,02,307,*7E
$GPGSV,3,3,10,14,01,039,16,38,,,*4A
$GPRMC,111539.000,A,4409.1396,N,01216.0696,E,7.92,84.53,050408,,,A*56
$GPGGA,111540.000,4409.1398,N,01216.0729,E,1,7,1.17,17.6,M,46.6,M,,*6A
$GPRMC,111540.000,A,4409.1398,N,01216.0729,E,7.83,88.00,050408,,,A*59
$GPGGA,111541.000,4409.1399,N,01216.0758,E,1,7,1.17,18.1,M,46.6,M,,*64
$GPRMC,111541.000,A,4409.1399,N,01216.0758,E,7.47,89.78,050408,,,A*59
$GPGGA,111542.000,4409.1401,N,01216.0787,E,1,7,1.17,17.3,M,46.6,M,,*6E
$GPGSA,A,3,17,13,23,32,11,20,31,,,,,,1.88,1.17,1.47*02
$GPGSV,3,1,10,20,74,313,43,11,68,166,43,23,49,199,48,17,35,293,42*7A
$GPGSV,3,2,10,31,25,075,34,32,22,070,31,13,12,209,37,04,02,307,*71
$GPGSV,3,3,10,14,01,039,19,40,,,*4A
$GPRMC,111542.000,A,4409.1401,N,01216.0787,E,7.42,84.22,050408,,,A*59
$GPGGA,111543.000,4409.1402,N,01216.0820,E,1,7,1.17,17.0,M,46.6,M,,*6D
$GPRMC,111543.000,A,4409.1402,N,01216.0820,E,7.61,85.78,050408,,,A*56
$GPGGA,111544.000,4409.1404,N,01216.0849,E,1,7,1.17,17.6,M,46.6,M,,*65
$GPRMC,111544.000,A,4409.1404,N,01216.0849,E,7.09,91.14,050408,,,A*59
$GPGGA,111545.000,4409.1405,N,01216.0877,E,1,7,1.17,17.8,M,46.6,M,,*66
$GPGSA,A,3,17,13,23,32,11,20,31,,,,,,1.88,1.17,1.47*02
$GPGSV,3,1,10,20,74,313,43,11,68,166,43,23,49,199,48,17,35,293,44*7C
$GPGSV,3,2,10,31,25,075,34,32,22,070,30,13,12,209,38,04,02,307,*7F
$GPGSV,3,3,10,14,01,039,16,40,,,27*40
$GPRMC,111545.000,A,4409.1405,N,01216.0877,E,7.07,93.21,050408,,,A*5E
$GPGGA,111546.000,4409.1405,N,01216.0906,E,1,7,1.17,17.7,M,46.6,M,,*6D
$GPRMC,111546.000,A,4409.1405,N,01216.0906,E,6.84,89.53,050408,,,A*5E
$GPGGA,111547.000,4409.1410,N,01216.0935,E,1,7,1.17,17.6,M,46.6,M,,*69
$GPRMC,111547.000,A,4409.1410,N,01216.0935,E,7.06,83.44,050408,,,A*5C
$GPGGA,111548.000,4409.1411,N,01216.0960,E,1,7,1.17,17.5,M,46.6,M,,*64
$GPGSA,A,3,17,13,23,32,11,20,31,,,,,,1.88,1.17,1.47*02
$GPGSV,3,1,10,20,74,313,43,11,68,166,43,23,49,199,36,17,35,293,43*72
$GPGSV,3,2,10,31,25,075,34,32,22,070,31,13,12,209,39,04,02,307,*7F
$GPGSV,3,3,10,14,01,039,16,40,,,33*45
$GPRMC,111548.000,A,4409.1411,N,01216.0960,E,6.65,84.21,050408,,,A*52
$GPGGA,111549.000,4409.1414,N,01216.0983,E,1,7,1.17,17.7,M,46.6,M,,*6F
$GPRMC,111549.000,A,4409.1414,N,01216.0983,E,6.15,85.78,050408,,,A*51
$GPGGA,111550.000,4409.1414,N,01216.1006,E,1,7,1.17,18.1,M,46.6,M,,*6B
$GPRMC,111550.000,A,4409.1414,N,01216.1006,E,6.07,91.38,050408,,,A*5E
$GPGGA,111551.000,4409.1413,N,01216.1029,E,1,6,1.25,18.5,M,46.6,M,,*64
$GPGSA,A,3,17,13,23,32,11,20,,,,,,,1.95,1.25,1.50*0B
$GPGSV,3,1,10,20,74,314,43,11,68,166,43,23,49,199,46,17,35,293,43*72
$GPGSV,3,2,10,31,25,075,20,32,22,070,19,13,12,209,39,04,02,307,*70
$GPGSV,3,3,10,14,01,039,16,40,,,28*4F
$GPRMC,111551.000,A,4409.1413,N,01216.1029,E,5.72,92.42,050408,,,A*5A
$GPGGA,111552.000,4409.1412,N,01216.1049,E,1,6,1.24,19.0,M,46.6,M,,*65
$GPRMC,111552.000,A,4409.1412,N,01216.1049,E,5.53,88.03,050408,,,A*53
$GPGGA,111553.000,4409.1414,N,01216.1073,E,1,7,1.15,20.0,M,46.6,M,,*62
$GPRMC,111553.000,A,4409.1414,N,01216.1073,E,5.34,94.14,050408,,,A*57
$GPGGA,111554.000,4409.1414,N,01216.1095,E,1,6,1.25,20.5,M,46.6,M,,*6A
$GPGSA,A,3,17,13,23,32,11,20,,,,,,,1.95,1.25,1.50*0B
$GPGSV,3,1,10,20,74,314,43,11,68,166,43,23,49,199,48,17,35,293,44*7B
$GPGSV,3,2,10,31,25,075,23,32,22,070,19,13,12,209,33,04,02,307,22*79
$GPGSV,3,3,10,14,01,039,,41,,,*43
$GPRMC,111554.000,A,4409.1414,N,01216.1095,E,5.32,94.80,050408,,,A*53
$GPGGA,111555.000,4409.1413,N,01216.1115,E,1,7,1.17,21.3,M,46.6,M,,*62
$GPRMC,111555.000,A,4409.1413,N,01216.1115,E,5.40,93.75,050408,,,A*54
$GPGGA,111556.000,4409.1412,N,01216.1137,E,1,7,1.17,21.3,M,46.6,M,,*60
$GPRMC,111556.000,A,4409.1412,N,01216.1137,E,5.29,98.12,050408,,,A*53
$GPGGA,111557.000,4409.1414,N,01216.1170,E,1,7,1.15,20.6,M,46.6,M,,*62
$GPGSA,A,3,17,13,23,32,11,20,31,,,,,,1.42,1.15,0.83*0F
$GPGSV,3,1,10,20,74,314,34,11,68,166,43,23,49,199,48,17,35,293,44*7B
$GPGSV,3,2,10,31,25,075,34,32,22,070,30,13,12,209,40,04,02,307,22*70
$GPGSV,3,3,10,14,01,039,,45,,,*47
$GPRMC,111557.000,A,4409.1414,N,01216.1170,E,6.00,93.05,050408,,,A*52
$GPGGA,111558.000,4409.1415,N,01216.1198,E,1,7,1.17,20.3,M,46.6,M,,*6D
$GPRMC,111558.000,A,4409.1415,N,01216.1198,E,6.54,89.58,050408,,,A*58
$GPGGA,111559.000,4409.1417,N,01216.1229,E,1,7,1.15,20.3,M,46.6,M,,*65
$GPRMC,111559.000,A,4409.1417,N,01216.1229,E,7.39,89.19,050408,,,A*5D
$GPGGA,111600.000,4409.1419,N,01216.1261,E,1,7,1.15,20.6,M,46.6,M,,*6D
$GPGSA,A,3,17,13,23,32,11,20,31,,,,,,1.42,1.15,0.83*0F
$GPGSV,3,1,10,20,74,314,42,11,68,166,43,23,49,199,48,17,35,293,33*7A
$GPGSV,3,2,10,31,25,074,34,32,22,070,30,13,12,209,41,04,02,307,19*78
$GPGSV,3,3,10,14,01,039,,46,,,*44
$GPRMC,111600.000,A,4409.1419,N,01216.1261,E,7.42,89.56,050408,,,A*57
$GPGGA,111601.000,4409.1423,N,01216.1298,E,1,7,1.17,20.2,M,46.6,M,,*65
$GPRMC,111601.000,A,4409.1423,N,01216.1298,E,7.60,89.25,050408,,,A*5D
$GPGGA,111602.000,4409.1428,N,01216.1326,E,1,7,1.16,20.2,M,46.6,M,,*68
$GPRMC,111602.000,A,4409.1428,N,01216.1326,E,6.37,85.77,050408,,,A*59
$GPGGA,111603.000,4409.1431,N,01216.1352,E,1,7,1.15,20.5,M,46.6,M,,*66
$GPGSA,A,3,17,13,23,32,11,20,31,,,,,,1.42,1.15,0.83*0F
$GPGSV,3,1,10,20,74,314,43,11,68,166,43,23,49,199,40,17,35,293,44*73
$GPGSV,3,2,10,31,25,074,34,32,22,070,30,13,12,209,40,04,02,307,18*78
$GPGSV,3,3,10,14,01,039,,51,,,*42
$GPRMC,111603.000,A,4409.1431,N,01216.1352,E,6.38,89.08,050408,,,A*58
$GPGGA,111604.000,4409.1430,N,01216.1379,E,1,7,1.17,20.5,M,46.6,M,,*6B
$GPRMC,111604.000,A,4409.1430,N,01216.1379,E,6.80,92.38,050408,,,A*5D
$GPGGA,111605.000,4409.1430,N,01216.1403,E,1,7,1.15,20.5,M,46.6,M,,*62
$GPRMC,111605.000,A,4409.1430,N,01216.1403,E,5.92,91.27,050408,,,A*5B
$GPGGA,111606.000,4409.1431,N,01216.1429,E,1,7,1.15,20.1,M,46.6,M,,*6C
$GPGSA,A,3,17,13,23,32,11,20,31,,,,,,1.42,1.15,0.83*0F
$GPGSV,3,1,10,20,74,314,44,11,68,166,41,23,49,199,36,17,35,293,44*77
$GPGSV,3,2,10,31,25,074,34,32,22,070,31,13,12,209,38,04,02,307,18*76
$GPGSV,3,3,10,14,01,039,,42,,,*40
$GPRMC,111606.000,A,4409.1431,N,01216.1429,E,5.99,88.52,050408,,,A*50
$GPGGA,111607.000,4409.1433,N,01216.1455,E,1,7,1.15,20.3,M,46.6,M,,*66
$GPRMC,111607.000,A,4409.1433,N,01216.1455,E,6.08,86.36,050408,,,A*5F
$GPGGA,111608.000,4409.1437,N,01216.1481,E,1,7,1.17,20.6,M,46.6,M,,*63
$GPRMC,111608.000,A,4409.1437,N,01216.1481,E,6.02,88.70,050408,,,A*5B
$GPGGA,111609.000,4409.1437,N,01216.1505,E,1,7,1.15,20.7,M,46.6,M,,*6C
$GPGSA,A,3,17,13,23,32,11,20,31,,,,,,1.42,1.15,0.83*0F
$GPGSV,3,1,10,20,74,314,44,11,68,166,41,23,49,199,43,17,35,293,45*74
$GPGSV,3,2,10,31,25,074,34,32,22,070,31,13,12,209,35,04,02,307,18*7B
$GPGSV,3,3,10,14,01,039,,48,,,*4A
$GPRMC,111609.000,A,4409.1437,N,01216.1505,E,6.26,88.63,050408,,,A*53
$GPGGA,111610.000,4409.1438,N,01216.1530,E,1,7,1.15,20.7,M,46.6,M,,*6D
$GPRMC,111610.000,A,4409.1438,N,01216.1530,E,5.55,87.60,050408,,,A*59
$GPGGA,111611.000,4409.1437,N,01216.1551,E,1,7,1.15,20.8,M,46.6,M,,*6B
$GPRMC,111611.000,A,4409.1437,N,01216.1551,E,3.72,96.07,050408,,,A*52
$GPGGA,111612.000,4409.1436,N,01216.1563,E,1,7,1.15,21.1,M,46.6,M,,*60
$GPGSA,A,3,17,13,23,32,11,20,31,,,,,,1.42,1.15,0.83*0F
$GPGSV,3,1,10,20,74,314,43,11,68,166,40,23,49,199,40,17,35,293,47*73
$GPGSV,3,2,10,31,25,074,33,32,22,070,30,13,12,209,39,04,02,307,18*71
$GPGSV,3,3,10,14,01,039,,35,,,*40
$GPRMC,111612.000,A,4409.1436,N,01216.1563,E,2.98,109.44,050408,,,A*64
$GPGGA,111613.000,4409.1434,N,01216.1576,E,1,7,1.15,21.5,M,46.6,M,,*63
$GPRMC,111613.000,A,4409.1434,N,01216.1576,E,3.18,100.68,050408,,,A*6D
$GPGGA,111614.000,4409.1433,N,01216.1588,E,1,7,1.16,21.7,M,46.6,M,,*63
$GPRMC,111614.000,A,4409.1433,N,01216.1588,E,3.18,94.89,050408,,,A*5F
$GPGGA,111615.000,4409.1435,N,01216.1603,E,1,7,1.16,21.9,M,46.6,M,,*6A
$GPGSA,A,3,17,13,23,32,11,20,31,,,,,,1.42,1.16,0.83*0C
$GPGSV,3,1,10,20,74,314,43,11,68,166,39,23,49,199,42,17,35,293,46*7E
$GPGSV,3,2,10,37,32,167,,31,25,074,33,32,22,070,31,13,12,209,40*70
$GPGSV,3,3,10,04,02,307,18,14,01,039,*7D
$GPRMC,111615.000,A,4409.1435,N,01216.1603,E,2.39,95.95,050408,,,A*56
$GPGGA,111616.000,4409.1437,N,01216.1611,E,1,7,1.15,22.1,M,46.6,M,,*60
$GPRMC,111616.000,A,4409.1437,N,01216.1611,E,1.52,95.95,050408,,,A*5A
$GPGGA,111617.000,4409.1442,N,01216.1624,E,1,7,1.15,22.0,M,46.6,M,,*64
$GPRMC,111617.000,A,4409.1442,N,01216.1624,E,1.52,95.95,050408,,,A*5F
$GPGGA,111618.000,4409.1449,N,01216.1629,E,1,7,1.15,21.6,M,46.6,M,,*68
$GPGSA,A,3,17,13,23,32,11,20,31,,,,,,1.42,1.15,0.83*0F
$GPGSV,3,1,10,20,74,314,42,11,68,166,43,23,49,199,37,39,37,162,*71
$GPGSV,3,2,10,17,35,293,38,31,25,074,42,32,22,070,42,13,12,209,37*74
$GPGSV,3,3,10,04,02,307,18,14,01,039,*7D
$GPRMC,111618.000,A,4409.1449,N,01216.1629,E,1.53,95.95,050408,,,A*57
$GPGGA,111619.000,4409.1451,N,01216.1631,E,1,7,1.17,20.9,M,46.6,M,,*65
$GPRMC,111619.000,A,4409.1451,N,01216.1631,E,1.08,95.95,050408,,,A*58
$GPGGA,111620.000,4409.1451,N,01216.1627,E,1,7,1.15,21.2,M,46.6,M,,*60
$GPRMC,111620.000,A,4409.1451,N,01216.1627,E,2.03,258.67,050408,,,A*63
$GPGGA,111621.000,4409.1451,N,01216.1617,E,1,7,1.15,21.6,M,46.6,M,,*66
$GPGSA,A,3,17,13,23,32,11,20,31,,,,,,1.42,1.15,0.83*0F
$GPGSV,3,1,10,20,74,315,42,11,68,166,43,23,49,199,36,39,37,162,27*74
$GPGSV,3,2,10,17,35,293,36,31,25,074,44,32,22,070,43,13,12,209,35*7F
$GPGSV,3,3,10,04,02,307,17,14,01,039,*72
$GPRMC,111621.000,A,4409.1451,N,01216.1617,E,2.66,262.42,050408,,,A*6C
$GPGGA,111622.000,4409.1452,N,01216.1606,E,1,7,1.16,21.9,M,46.6,M,,*6A
$GPRMC,111622.000,A,4409.1452,N,01216.1606,E,3.12,280.82,050408,,,A*6E
$GPGGA,111623.000,4409.1454,N,01216.1594,E,1,7,1.15,22.1,M,46.6,M,,*6D
$GPRMC,111623.000,A,4409.1454,N,01216.1594,E,3.93,278.76,050408,,,A*64
$GPGGA,111624.000,4409.1454,N,01216.1580,E,1,7,1.16,22.5,M,46.6,M,,*68
$GPGSA,A,3,17,13,23,32,11,20,31,,,,,,1.42,1.16,0.83*0C
$GPGSV,3,1,10,20,74,315,41,11,68,166,41,23,50,199,39,39,37,162,29*7C
$GPGSV,3,2,10,17,35,293,37,31,25,074,46,32,22,070,44,13,12,209,31*7F
$GPGSV,3,3,10,04,02,307,17,14,01,039,*72
$GPRMC,111624.000,A,4409.1454,N,01216.1580,E,3.95,275.73,050408,,,A*68
$GPGGA,111625.000,4409.1454,N,01216.1565,E,1,7,1.16,22.9,M,46.6,M,,*6E
$GPRMC,111625.000,A,4409.1454,N,01216.1565,E,4.42,272.28,050408,,,A*66
$GPGGA,111626.000,4409.1455,N,01216.1547,E,1,7,1.16,23.2,M,46.6,M,,*66
$GPRMC,111626.000,A,4409.1455,N,01216.1547,E,4.83,274.77,050408,,,A*65
$GPGGA,111627.000,4409.1453,N,01216.1528,E,1,7,1.16,23.6,M,46.6,M,,*6C
$GPGSA,A,3,17,13,23,32,11,20,31,,,,,,1.42,1.16,0.83*0C
$GPGSV,3,1,10,20,74,315,41,11,68,166,42,23,50,199,38,17,35,293,36*73
$GPGSV,3,2,10,33,31,217,,31,25,074,45,32,22,070,44,13,12,209,29*7F
$GPGSV,3,3,10,04,02,307,17,14,01,039,22*72
$GPRMC,111627.000,A,4409.1453,N,01216.1528,E,4.89,270.15,050408,,,A*61
$GPGGA,111628.000,4409.1449,N,01216.1508,E,1,7,1.17,23.7,M,46.6,M,,*6A
$GPRMC,111628.000,A,4409.1449,N,01216.1508,E,4.99,263.19,050408,,,A*68
$GPGGA,111629.000,4409.1447,N,01216.1488,E,1,7,1.16,24.2,M,46.6,M,,*6F
$GPRMC,111629.000,A,4409.1447,N,01216.1488,E,5.54,265.69,050408,,,A*6F
$GPGGA,111630.000,4409.1445,N,01216.1467,E,1,7,1.16,24.6,M,46.6,M,,*60
$GPGSA,A,3,17,13,23,32,11,20,31,,,,,,1.42,1.16,0.83*0C
$GPGSV,3,1,10,20,74,315,41,11,68,166,42,23,50,199,36,17,35,293,35*7E
$GPGSV,3,2,10,33,31,217,,31,25,074,44,32,22,070,44,13,12,209,29*7E
$GPGSV,3,3,10,04,02,307,17,14,01,039,20*70
$GPRMC,111630.000,A,4409.1445,N,01216.1467,E,5.67,267.01,050408,,,A*68
$GPGGA,111631.000,4409.1443,N,01216.1446,E,1,7,1.16,25.0,M,46.6,M,,*63
$GPRMC,111631.000,A,4409.1443,N,01216.1446,E,5.69,269.79,050408,,,A*63
$GPGGA,111632.000,4409.1444,N,01216.1425,E,1,7,1.16,25.5,M,46.6,M,,*67
$GPRMC,111632.000,A,4409.1444,N,01216.1425,E,5.71,269.27,050408,,,A*60
$GPGGA,111633.000,4409.1447,N,01216.1401,E,1,7,1.16,25.7,M,46.6,M,,*61
$GPGSA,A,3,17,13,23,32,11,20,31,,,,,,1.42,1.16,0.83*0C
$GPGSV,3,1,10,20,74,315,41,11,68,166,42,23,50,199,36,17,35,293,34*7F
$GPGSV,3,2,10,33,31,217,29,31,25,074,45,32,21,070,45,13,12,209,26*79
$GPGSV,3,3,10,04,02,307,18,14,01,039,18*74
$GPRMC,111633.000,A,4409.1447,N,01216.1401,E,6.08,270.78,050408,,,A*6B
$GPGGA,111634.000,4409.1445,N,01216.1377,E,1,7,1.17,25.8,M,46.6,M,,*6C
$GPRMC,111634.000,A,4409.1445,N,01216.1377,E,6.31,268.13,050408,,,A*66
$GPGGA,111635.000,4409.1436,N,01216.1351,E,1,7,1.17,25.3,M,46.6,M,,*66
$GPRMC,111635.000,A,4409.1436,N,01216.1351,E,6.05,258.13,050408,,,A*63
$GPGGA,111636.000,4409.1434,N,01216.1328,E,1,7,1.17,24.9,M,46.6,M,,*62
$GPGSA,A,3,17,13,23,32,11,20,31,,,,,,1.88,1.17,1.47*02
$GPGSV,3,1,10,20,74,315,41,11,68,166,43,23,50,199,39,17,35,293,23*77
$GPGSV,3,2,10,33,31,217,28,31,25,074,45,32,21,070,45,13,12,209,31*7E
$GPGSV,3,3,10,04,02,307,18,14,01,039,17*7B
$GPRMC,111636.000,A,4409.1434,N,01216.1328,E,6.03,260.42,050408,,,A*65
$GPGGA,111637.000,4409.1429,N,01216.1305,E,1,7,1.17,24.5,M,46.6,M,,*6C
$GPRMC,111637.000,A,4409.1429,N,01216.1305,E,6.20,257.24,050408,,,A*62
$GPGGA,111638.000,4409.1425,N,01216.1283,E,1,7,1.18,24.5,M,46.6,M,,*6F
$GPRMC,111638.000,A,4409.1425,N,01216.1283,E,5.72,251.98,050408,,,A*6B
$GPGGA,111639.000,4409.1421,N,01216.1258,E,1,7,1.18,24.1,M,46.6,M,,*68
$GPGSA,A,3,17,13,23,32,11,20,31,,,,,,1.88,1.18,1.47*0D
$GPGSV,3,1,10,20,74,315,31,11,68,166,44,23,50,199,41,17,35,293,38*72
$GPGSV,3,2,10,33,31,217,28,31,25,074,45,32,21,070,45,13,12,209,31*7E
$GPGSV,3,3,10,04,02,307,18,14,01,039,25*7A
$GPRMC,111639.000,A,4409.1421,N,01216.1258,E,5.91,258.16,050408,,,A*6A
$GPGGA,111640.000,4409.1423,N,01216.1227,E,1,7,1.17,24.0,M,46.6,M,,*62
$GPRMC,111640.000,A,4409.1423,N,01216.1227,E,6.46,262.40,050408,,,A*6D
$GPGGA,111641.000,4409.1420,N,01216.1204,E,1,7,1.18,24.2,M,46.6,M,,*6C
$GPRMC,111641.000,A,4409.1420,N,01216.1204,E,5.86,264.04,050408,,,A*67
$GPGGA,111642.000,4409.1420,N,01216.1179,E,1,7,1.16,24.3,M,46.6,M,,*69
$GPGSA,A,3,17,13,23,32,11,20,31,,,,,,1.42,1.16,0.83*0C
$GPGSV,3,1,10,20,74,315,38,11,68,166,44,23,50,199,40,17,35,293,34*76
$GPGSV,3,2,10,33,31,217,28,31,25,074,32,32,21,070,43,13,12,209,31*78
$GPGSV,3,3,10,04,02,307,18,14,01,039,22*7D
$GPRMC,111642.000,A,4409.1420,N,01216.1179,E,6.37,267.91,050408,,,A*6B
$GPGGA,111643.000,4409.1423,N,01216.1150,E,1,7,1.16,24.7,M,46.6,M,,*64
$GPRMC,111643.000,A,4409.1423,N,01216.1150,E,6.70,272.38,050408,,,A*66
$GPGGA,111644.000,4409.1425,N,01216.1122,E,1,7,1.16,25.2,M,46.6,M,,*64
$GPRMC,111644.000,A,4409.1425,N,01216.1122,E,6.60,272.00,050408,,,A*68
$GPGGA,111645.000,4409.1428,N,01216.1093,E,1,7,1.16,25.5,M,46.6,M,,*64
$GPGSA,A,3,17,13,23,32,11,20,31,,,,,,1.42,1.16,0.83*0C
$GPGSV,3,1,10,20,74,315,40,11,68,166,43,23,50,199,39,17,35,293,36*72
$GPGSV,3,2,10,31,25,074,31,32,21,070,33,44,17,117,,13,12,209,25*74
$GPGSV,3,3,10,04,02,307,18,14,01,039,20*7F
$GPRMC,111645.000,A,4409.1428,N,01216.1093,E,6.73,271.14,050408,,,A*6B
$GPGGA,111646.000,4409.1433,N,01216.1061,E,1,7,1.16,25.6,M,46.6,M,,*63
$GPRMC,111646.000,A,4409.1433,N,01216.1061,E,6.50,270.66,050408,,,A*6A
$GPGGA,111647.000,4409.1432,N,01216.1038,E,1,7,1.18,25.9,M,46.6,M,,*6E
$GPRMC,111647.000,A,4409.1432,N,01216.1038,E,6.48,274.90,050408,,,A*62
$GPGGA,111648.000,4409.1435,N,01216.1013,E,1,7,1.18,26.4,M,46.6,M,,*61
$GPGSA,A,3,17,13,23,32,11,20,31,,,,,,1.88,1.18,1.47*0D
$GPGSV,3,1,10,20,74,315,41,11,68,166,43,23,50,199,38,17,35,293,35*71
$GPGSV,3,2,10,31,25,074,46,32,21,070,37,44,17,117,,13,12,209,26*73
$GPGSV,3,3,10,04,02,307,18,14,01,039,*7D
$GPRMC,111648.000,A,4409.1435,N,01216.1013,E,6.53,276.41,050408,,,A*67
$GPGGA,111649.000,4409.1430,N,01216.0986,E,1,7,1.18,25.8,M,46.6,M,,*6E
$GPRMC,111649.000,A,4409.1430,N,01216.0986,E,6.65,268.78,050408,,,A*67
$GPGGA,111650.000,4409.1426,N,01216.0957,E,1,7,1.18,25.7,M,46.6,M,,*62
$GPRMC,111650.000,A,4409.1426,N,01216.0957,E,6.76,264.43,050408,,,A*62
$GPGGA,111651.000,4409.1425,N,01216.0929,E,1,7,1.18,25.6,M,46.6,M,,*68
$GPGSA,A,3,17,13,23,32,11,20,31,,,,,,1.88,1.18,1.47*0D
$GPGSV,3,1,10,20,74,315,41,11,68,166,43,23,50,199,40,17,36,292,35*7C
$GPGSV,3,2,10,37,32,167,,31,25,074,45,32,21,070,40,13,12,209,32*71
$GPGSV,3,3,10,04,02,307,18,14,01,039,*7D
$GPRMC,111651.000,A,4409.1425,N,01216.0929,E,6.81,265.61,050408,,,A*60
$GPGGA,111652.000,4409.1422,N,01216.0905,E,1,7,1.16,25.6,M,46.6,M,,*6C
$GPRMC,111652.000,A,4409.1422,N,01216.0905,E,6.65,267.90,050408,,,A*6C
$GPGGA,111653.000,4409.1422,N,01216.0876,E,1,7,1.18,25.7,M,46.6,M,,*67
$GPRMC,111653.000,A,4409.1422,N,01216.0876,E,6.62,266.46,050408,,,A*65
$GPGGA,111654.000,4409.1419,N,01216.0850,E,1,7,1.18,25.9,M,46.6,M,,*62
$GPGSA,A,3,17,13,23,32,11,20,31,,,,,,1.88,1.18,1.47*0D
$GPGSV,3,1,10,20,74,316,42,11,68,166,43,23,50,199,40,17,36,292,27*7F
$GPGSV,3,2,10,33,31,217,,31,25,074,45,32,21,070,42,13,12,209,28*7B
$GPGSV,3,3,10,04,02,307,18,14,01,039,22*7D
$GPRMC,111654.000,A,4409.1419,N,01216.0850,E,6.79,267.02,050408,,,A*65
$GPGGA,111655.000,4409.1418,N,01216.0824,E,1,7,1.18,26.0,M,46.6,M,,*6B
$GPRMC,111655.000,A,4409.1418,N,01216.0824,E,6.97,266.51,050408,,,A*61
$GPGGA,111656.000,4409.1412,N,01216.0791,E,1,7,1.18,24.2,M,46.6,M,,*63
$GPRMC,111656.000,A,4409.1412,N,01216.0791,E,7.50,267.84,050408,,,A*6A
$GPGGA,111657.000,4409.1411,N,01216.0760,E,1,7,1.18,24.2,M,46.6,M,,*6F
$GPGSA,A,3,17,13,23,32,11,20,31,,,,,,1.88,1.18,1.47*0D
$GPGSV,3,1,10,20,74,316,41,11,68,166,43,23,50,199,40,17,36,292,28*73
$GPGSV,3,2,10,31,25,074,46,32,21,070,43,44,17,117,,13,12,209,29*7F
$GPGSV,3,3,10,04,02,307,18,14,01,039,26*79
$GPRMC,111657.000,A,4409.1411,N,01216.0760,E,7.55,268.72,050408,,,A*65
$GPGGA,111658.000,4409.1412,N,01216.0730,E,1,7,1.18,24.2,M,46.6,M,,*66
$GPRMC,111658.000,A,4409.1412,N,01216.0730,E,8.16,264.52,050408,,,A*6A
$GPGGA,111659.000,4409.1410,N,01216.0697,E,1,7,1.18,24.0,M,46.6,M,,*6B
$GPRMC,111659.000,A,4409.1410,N,01216.0697,E,8.09,261.45,050408,,,A*68
$GPGGA,111700.000,4409.1407,N,01216.0662,E,1,7,1.18,23.8,M,46.6,M,,*65
$GPGSA,A,3,17,13,23,32,11,20,31,,,,,,1.88,1.18,1.47*0D
$GPGSV,3,1,10,20,74,316,42,11,68,166,43,23,50,199,42,17,36,292,35*7E
$GPGSV,3,2,10,31,25,074,44,32,21,070,39,13,12,209,20,04,02,307,18*73
$GPGSV,3,3,10,14,01,039,23,36,,,*42
$GPRMC,111700.000,A,4409.1407,N,01216.0662,E,9.06,264.80,050408,,,A*6B
$GPGGA,111701.000,4409.1402,N,01216.0624,E,1,7,1.18,23.6,M,46.6,M,,*6D
$GPRMC,111701.000,A,4409.1402,N,01216.0624,E,9.53,266.14,050408,,,A*62
$GPGGA,111702.000,4409.1392,N,01216.0586,E,1,7,1.18,22.0,M,46.6,M,,*6C
$GPRMC,111702.000,A,4409.1392,N,01216.0586,E,9.81,266.23,050408,,,A*6F
$GPGGA,111703.000,4409.1390,N,01216.0542,E,1,7,1.18,20.8,M,46.6,M,,*6D
$GPGSA,A,3,17,13,23,32,11,20,31,,,,,,1.88,1.18,1.47*0D
$GPGSV,3,1,10,20,74,316,42,11,68,166,44,23,50,199,42,17,36,292,34*78
$GPGSV,3,2,10,31,25,074,44,32,21,070,40,13,12,209,33,04,02,307,17*70
$GPGSV,3,3,10,14,01,039,18,38,,,*44
$GPRMC,111703.000,A,4409.1390,N,01216.0542,E,9.50,263.94,050408,,,A*61
$GPGGA,111704.000,4409.1387,N,01216.0500,E,1,7,1.18,19.8,M,46.6,M,,*60
$GPRMC,111704.000,A,4409.1387,N,01216.0500,E,9.73,264.60,050408,,,A*6B
$GPGGA,111705.000,4409.1382,N,01216.0462,E,1,7,1.18,19.0,M,46.6,M,,*69
$GPRMC,111705.000,A,4409.1382,N,01216.0462,E,9.91,264.74,050408,,,A*63
$GPGGA,111706.000,4409.1379,N,01216.0423,E,1,7,1.18,19.2,M,46.6,M,,*69
$GPGSA,A,3,17,13,23,32,11,20,31,,,,,,1.88,1.18,1.47*0D
$GPGSV,3,1,10,20,74,316,42,11,68,166,44,23,50,199,42,17,36,292,33*7F
$GPGSV,3,2,10,31,25,074,45,32,21,071,42,13,12,209,33,04,02,307,17*72
$GPGSV,3,3,10,14,01,039,17,40,,,38*4F
$GPRMC,111706.000,A,4409.1379,N,01216.0423,E,9.91,266.52,050408,,,A*67
$GPGGA,111707.000,4409.1377,N,01216.0385,E,1,7,1.18,19.1,M,46.6,M,,*6E
$GPRMC,111707.000,A,4409.1377,N,01216.0385,E,9.83,266.95,050408,,,A*6B
$GPGGA,111708.000,4409.1375,N,01216.0347,E,1,7,1.18,19.3,M,46.6,M,,*6F
$GPRMC,111708.000,A,4409.1375,N,01216.0347,E,9.85,266.58,050408,,,A*6F
$GPGGA,111709.000,4409.1374,N,01216.0309,E,1,7,1.18,19.4,M,46.6,M,,*62
$GPGSA,A,3,17,13,23,32,11,20,31,,,,,,1.88,1.18,1.47*0D
$GPGSV,3,1,10,20,74,316,42,11,68,166,44,23,50,199,43,17,36,292,33*7E
$GPGSV,3,2,10,31,25,074,45,32,21,071,44,13,12,209,22,04,02,307,17*74
$GPGSV,3,3,10,14,01,039,16,40,,,41*40
$GPRMC,111709.000,A,4409.1374,N,01216.0309,E,9.77,266.83,050408,,,A*6E
$GPGGA,111710.000,4409.1372,N,01216.0275,E,1,7,1.18,19.4,M,46.6,M,,*66
$GPRMC,111710.000,A,4409.1372,N,01216.0275,E,9.45,267.05,050408,,,A*64
$GPGGA,111711.000,4409.1370,N,01216.0238,E,1,7,1.18,19.4,M,46.6,M,,*6C
$GPRMC,111711.000,A,4409.1370,N,01216.0238,E,9.51,268.27,050408,,,A*64
$GPGGA,111712.000,4409.1368,N,01216.0201,E,1,7,1.18,19.6,M,46.6,M,,*6E
$GPGSA,A,3,17,13,23,32,11,20,31,,,,,,1.89,1.18,1.47*0C
$GPGSV,3,1,10,20,74,316,41,11,68,166,44,23,50,199,43,17,36,292,24*7B
$GPGSV,3,2,10,31,25,074,46,32,21,071,44,13,12,209,22,04,02,307,16*76
$GPGSV,3,3,10,14,01,039,18,40,,,38*40
$GPRMC,111712.000,A,4409.1368,N,01216.0201,E,9.46,268.73,050408,,,A*63
$GPGGA,111713.000,4409.1364,N,01216.0167,E,1,7,1.18,19.8,M,46.6,M,,*6E
$GPRMC,111713.000,A,4409.1364,N,01216.0167,E,9.23,264.42,050408,,,A*60
$GPGGA,111714.000,4409.1363,N,01216.0132,E,1,7,1.18,20.0,M,46.6,M,,*6C
$GPRMC,111714.000,A,4409.1363,N,01216.0132,E,9.13,264.72,050408,,,A*60
$GPGGA,111715.000,4409.1360,N,01216.0096,E,1,7,1.18,19.6,M,46.6,M,,*6D
$GPGSA,A,3,17,13,23,32,11,20,31,,,,,,1.89,1.18,1.47*0C
$GPGSV,3,1,10,20,74,316,40,11,68,166,44,23,50,199,43,17,36,292,25*7B
$GPGSV,3,2,10,31,25,074,44,32,21,071,32,13,12,209,33,04,02,307,16*75
$GPGSV,3,3,10,14,01,039,21,41,,,*40
$GPRMC,111715.000,A,4409.1360,N,01216.0096,E,8.81,266.58,050408,,,A*6D
$GPGGA,111716.000,4409.1357,N,01216.0063,E,1,7,1.18,19.7,M,46.6,M,,*61
$GPRMC,111716.000,A,4409.1357,N,01216.0063,E,8.24,265.94,050408,,,A*6C
$GPGGA,111717.000,4409.1361,N,01216.0023,E,1,7,1.18,19.6,M,46.6,M,,*60
$GPRMC,111717.000,A,4409.1361,N,01216.0023,E,8.99,270.57,050408,,,A*61
$GPGGA,111718.000,4409.1357,N,01215.9993,E,1,7,1.18,19.7,M,46.6,M,,*63
$GPGSA,A,3,17,13,23,32,11,20,31,,,,,,1.89,1.18,1.47*0C
$GPGSV,3,1,10,20,74,316,41,11,67,166,44,23,50,199,43,17,36,292,34*75
$GPGSV,3,2,10,31,25,074,40,32,21,071,32,13,13,210,23,04,02,307,*7E
$GPGSV,3,3,10,14,01,039,18,43,,,*48
$GPRMC,111718.000,A,4409.1357,N,01215.9993,E,8.77,263.49,050408,,,A*6E
$GPGGA,111719.000,4409.1356,N,01215.9962,E,1,7,1.18,20.4,M,46.6,M,,*64
$GPRMC,111719.000,A,4409.1356,N,01215.9962,E,8.38,266.16,050408,,,A*64
$GPGGA,111720.000,4409.1354,N,01215.9931,E,1,7,1.18,20.6,M,46.6,M,,*68
$GPRMC,111720.000,A,4409.1354,N,01215.9931,E,7.98,266.67,050408,,,A*69
$GPGGA,111721.000,4409.1354,N,01215.9901,E,1,7,1.18,20.7,M,46.6,M,,*6B
$GPGSA,A,3,17,13,23,32,11,20,31,,,,,,1.89,1.18,1.47*0C
$GPGSV,3,1,09,20,74,316,42,11,67,166,44,23,50,199,43,17,36,292,26*7D
$GPGSV,3,2,09,31,25,074,39,32,21,071,35,13,13,210,22,04,02,307,*7E
$GPGSV,3,3,09,46,,,*72
$GPRMC,111721.000,A,4409.1354,N,01215.9901,E,7.89,267.01,050408,,,A*6A
$GPGGA,111722.000,4409.1353,N,01215.9872,E,1,7,1.18,20.9,M,46.6,M,,*64
$GPRMC,111722.000,A,4409.1353,N,01215.9872,E,7.90,267.10,050408,,,A*63
$GPGGA,111723.000,4409.1350,N,01215.9842,E,1,7,1.18,21.3,M,46.6,M,,*6E
$GPRMC,111723.000,A,4409.1350,N,01215.9842,E,7.29,265.34,050408,,,A*64
$GPGGA,111724.000,4409.1350,N,01215.9814,E,1,7,1.18,22.0,M,46.6,M,,*6A
$GPGSA,A,3,17,13,23,32,11,20,31,,,,,,1.89,1.18,1.47*0C
$GPGSV,3,1,09,20,74,316,41,11,67,166,45,23,50,199,43,17,36,292,33*7B
$GPGSV,3,2,09,31,25,074,32,32,21,071,35,13,13,210,22,04,02,307,*75
$GPGSV,3,3,09,49,,,*7D
$GPRMC,111724.000,A,4409.1350,N,01215.9814,E,6.97,273.93,050408,,,A*6E
$GPGGA,111725.000,4409.1354,N,01215.9783,E,1,7,1.18,22.0,M,46.6,M,,*6E
$GPRMC,111725.000,A,4409.1354,N,01215.9783,E,7.55,286.49,050408,,,A*68
$GPGGA,111726.000,4409.1359,N,01215.9756,E,1,7,1.18,21.9,M,46.6,M,,*62
$GPRMC,111726.000,A,4409.1359,N,01215.9756,E,7.86,299.63,050408,,,A*66
$GPGGA,111727.000,4409.1372,N,01215.9727,E,1,7,1.18,21.3,M,46.6,M,,*66
$GPGSA,A,3,17,13,23,32,11,20,31,,,,,,1.89,1.18,1.47*0C
$GPGSV,3,1,09,20,74,316,35,11,67,166,45,23,50,199,44,39,37,162,*7E
$GPGSV,3,2,09,17,36,292,36,31,25,074,44,32,21,071,36,13,13,210,22*7A
$GPGSV,3,3,09,04,02,307,*42
$GPRMC,111727.000,A,4409.1372,N,01215.9727,E,7.77,309.16,050408,,,A*6C
$GPGGA,111728.000,4409.1386,N,01215.9704,E,1,7,1.18,21.0,M,46.6,M,,*60
$GPRMC,111728.000,A,4409.1386,N,01215.9704,E,7.26,312.67,050408,,,A*61
$GPGGA,111729.000,4409.1401,N,01215.9681,E,1,7,1.18,20.8,M,46.6,M,,*6C
$GPRMC,111729.000,A,4409.1401,N,01215.9681,E,7.56,311.59,050408,,,A*6D
$GPGGA,111730.000,4409.1415,N,01215.9661,E,1,7,1.18,21.0,M,46.6,M,,*66
$GPGSA,A,3,17,13,23,32,11,20,31,,,,,,1.89,1.18,1.47*0C
$GPGSV,3,1,09,20,74,316,39,11,67,166,45,23,50,199,44,39,37,162,39*78
$GPGSV,3,2,09,17,36,292,36,31,25,074,37,32,21,071,30,13,13,210,26*7C
$GPGSV,3,3,09,04,02,307,*42
$GPRMC,111730.000,A,4409.1415,N,01215.9661,E,7.48,311.93,050408,,,A*67
$GPGGA,111731.000,4409.1429,N,01215.9640,E,1,7,1.18,21.1,M,46.6,M,,*6A
$GPRMC,111731.000,A,4409.1429,N,01215.9640,E,7.70,310.35,050408,,,A*6C
$GPGGA,111732.000,4409.1441,N,01215.9613,E,1,7,1.18,20.2,M,46.6,M,,*63
$GPRMC,111732.000,A,4409.1441,N,01215.9613,E,7.61,311.08,050408,,,A*68
$GPGGA,111733.000,4409.1455,N,01215.9587,E,1,7,1.18,20.9,M,46.6,M,,*62
$GPGSA,A,3,17,13,23,32,11,20,31,,,,,,1.89,1.18,1.47*0C
$GPGSV,3,1,09,20,74,316,39,11,67,166,45,23,50,199,45,39,37,162,39*79
$GPGSV,3,2,09,17,36,292,37,31,25,074,38,32,21,071,36,13,13,210,34*77
$GPGSV,3,3,09,04,02,307,*42
$GPRMC,111733.000,A,4409.1455,N,01215.9587,E,7.34,313.74,050408,,,A*6B
$GPGGA,111734.000,4409.1470,N,01215.9567,E,1,7,1.18,20.9,M,46.6,M,,*6C
$GPRMC,111734.000,A,4409.1470,N,01215.9567,E,7.44,312.67,050408,,,A*61
$GPGGA,111735.000,4409.1482,N,01215.9546,E,1,7,1.18,20.4,M,46.6,M,,*6E
$GPRMC,111735.000,A,4409.1482,N,01215.9546,E,7.25,312.65,050408,,,A*6B
$GPGGA,111736.000,4409.1496,N,01215.9525,E,2,7,1.18,20.6,M,46.6,M,0000,0000*6C
$GPGSA,A,3,17,13,23,32,11,20,31,,,,,,1.89,1.18,1.47*0C
$GPGSV,3,1,09,20,74,316,41,11,67,166,45,23,50,199,45,17,36,292,32*7C
$GPGSV,3,2,09,33,31,217,30,31,25,074,43,32,21,071,39,13,13,210,25*7F
$GPGSV,3,3,09,04,02,307,*42
$GPRMC,111736.000,A,4409.1496,N,01215.9525,E,7.07,310.31,050408,,,D*6E
$GPGGA,111737.000,4409.1511,N,01215.9501,E,2,7,1.18,20.7,M,46.6,M,0000,0000*64
$GPRMC,111737.000,A,4409.1511,N,01215.9501,E,7.30,308.19,050408,,,D*60
$GPGGA,111738.000,4409.1525,N,01215.9478,E,2,7,1.18,20.7,M,46.6,M,0000,0000*63
$GPRMC,111738.000,A,4409.1525,N,01215.9478,E,7.46,313.07,050408,,,D*63
$GPGGA,111739.000,4409.1543,N,01215.9452,E,2,7,1.18,21.4,M,46.6,M,0000,0000*68
$GPGSA,A,3,17,13,23,32,11,20,31,,,,,,1.89,1.18,1.47*0C
$GPGSV,3,1,09,20,74,316,40,11,67,166,45,23,50,199,36,17,36,292,33*78
$GPGSV,3,2,09,33,31,217,28,31,25,074,42,32,21,071,39,13,13,210,23*71
$GPGSV,3,3,09,04,02,307,*42
$GPRMC,111739.000,A,4409.1543,N,01215.9452,E,7.61,312.34,050408,,,D*6E
$GPGGA,111740.000,4409.1558,N,01215.9432,E,2,7,1.18,21.8,M,46.6,M,0000,0000*66
$GPRMC,111740.000,A,4409.1558,N,01215.9432,E,6.74,314.24,050408,,,D*6E
$GPGGA,111741.000,4409.1572,N,01215.9412,E,2,7,1.18,21.3,M,46.6,M,0000,0000*66
$GPRMC,111741.000,A,4409.1572,N,01215.9412,E,6.24,312.80,050408,,,D*68
$GPGGA,111742.000,4409.1585,N,01215.9394,E,2,7,1.18,21.1,M,46.6,M,0000,0000*66
$GPGSA,A,3,17,13,23,32,11,20,31,,,,,,1.89,1.18,1.48*03
$GPGSV,3,1,09,20,74,316,39,11,67,166,45,23,50,199,39,17,36,292,33*79
$GPGSV,3,2,09,33,31,217,34,31,25,074,43,32,21,071,40,13,13,210,32*73
$GPGSV,3,3,09,04,03,308,*4C
$GPRMC,111742.000,A,4409.1585,N,01215.9394,E,6.23,314.49,050408,,,D*6E
$GPGGA,111743.000,4409.1596,N,01215.9377,E,2,7,1.18,20.9,M,46.6,M,0000,0000*61
$GPRMC,111743.000,A,4409.1596,N,01215.9377,E,6.33,314.02,050408,,,D*6E
$GPGGA,111744.000,4409.1609,N,01215.9358,E,2,7,1.18,20.7,M,46.6,M,0000,0000*60
$GPRMC,111744.000,A,4409.1609,N,01215.9358,E,6.25,311.23,050408,,,D*60
$GPGGA,111745.000,4409.1621,N,01215.9337,E,2,7,1.18,19.8,M,46.6,M,0000,0000*67
$GPGSA,A,3,17,13,23,32,11,20,31,,,,,,1.89,1.18,1.47*0C
$GPGSV,3,1,09,20,74,316,40,11,67,166,45,23,50,199,38,17,36,292,32*77
$GPGSV,3,2,09,33,31,217,30,31,25,074,44,32,21,071,39,13,13,210,31*7D
$GPGSV,3,3,09,04,03,308,*4C
$GPRMC,111745.000,A,4409.1621,N,01215.9337,E,5.76,309.90,050408,,,D*66
$GPGGA,111746.000,4409.1635,N,01215.9316,E,2,7,1.18,19.3,M,46.6,M,0000,0000*69
$GPRMC,111746.000,A,4409.1635,N,01215.9316,E,5.92,318.99,050408,,,D*60
$GPGGA,111747.000,4409.1649,N,01215.9301,E,2,7,1.18,19.1,M,46.6,M,0000,0000*67
$GPRMC,111747.000,A,4409.1649,N,01215.9301,E,5.22,320.38,050408,,,D*67
$GPGGA,111748.000,4409.1664,N,01215.9283,E,2,7,1.18,19.1,M,46.6,M,0000,0000*6C
$GPGSA,A,3,17,13,23,32,11,20,31,,,,,,1.89,1.18,1.47*0C
$GPGSV,3,1,09,20,74,316,39,11,67,166,46,23,50,199,39,17,36,292,35*7C
$GPGSV,3,2,09,33,31,217,28,31,25,074,43,32,21,071,38,13,13,210,24*76
$GPGSV,3,3,09,04,03,308,*4C
$GPRMC,111748.000,A,4409.1664,N,01215.9283,E,6.00,313.98,050408,,,D*65
$GPGGA,111749.000,4409.1674,N,01215.9266,E,2,7,1.18,19.9,M,46.6,M,0000,0000*6F
$GPRMC,111749.000,A,4409.1674,N,01215.9266,E,6.07,311.58,050408,,,D*67
$GPGGA,111750.000,4409.1687,N,01215.9248,E,2,7,1.18,20.1,M,46.6,M,0000,0000*65
$GPRMC,111750.000,A,4409.1687,N,01215.9248,E,7.01,311.18,050408,,,D*6C
$GPGGA,111751.000,4409.1699,N,01215.9228,E,2,7,1.18,20.5,M,46.6,M,0000,0000*69
$GPGSA,A,3,17,13,23,32,11,20,31,,,,,,1.89,1.18,1.48*03
$GPGSV,3,1,09,20,74,316,33,11,67,166,46,23,50,199,37,17,36,292,34*79
$GPGSV,3,2,09,33,31,217,27,31,25,074,41,32,21,071,39,13,13,210,22*7C
$GPGSV,3,3,09,04,03,308,*4C
$GPRMC,111751.000,A,4409.1699,N,01215.9228,E,6.09,308.86,050408,,,D*62
$GPGGA,111752.000,4409.1710,N,01215.9210,E,2,7,1.18,21.0,M,46.6,M,0000,0000*65
$GPRMC,111752.000,A,4409.1710,N,01215.9210,E,6.31,313.92,050408,,,D*6E
$GPGGA,111753.000,4409.1724,N,01215.9191,E,2,7,1.18,21.1,M,46.6,M,0000,0000*68
$GPRMC,111753.000,A,4409.1724,N,01215.9191,E,6.74,312.34,050408,,,D*6E
$GPGGA,111754.000,4409.1738,N,01215.9170,E,2,7,1.18,21.2,M,46.6,M,0000,0000*6E
$GPGSA,A,3,17,13,23,32,11,20,31,,,,,,1.89,1.18,1.48*03
$GPGSV,3,1,09,20,74,316,42,11,67,166,46,23,50,199,42,17,36,292,35*7C
$GPGSV,3,2,09,33,31,217,27,31,25,074,40,32,21,071,38,13,13,210,33*7C
$GPGSV,3,3,09,04,03,308,*4C
$GPRMC,111754.000,A,4409.1738,N,01215.9170,E,6.48,310.95,050408,,,D*6D
$GPGGA,111755.000,4409.1750,N,01215.9147,E,2,7,1.18,21.5,M,46.6,M,0000,0000*62
$GPRMC,111755.000,A,4409.1750,N,01215.9147,E,6.69,308.53,050408,,,D*66
$GPGGA,111756.000,4409.1761,N,01215.9127,E,2,7,1.18,21.4,M,46.6,M,0000,0000*64
$GPRMC,111756.000,A,4409.1761,N,01215.9127,E,6.50,309.27,050408,,,D*69
$GPGGA,111757.000,4409.1771,N,01215.9108,E,2,7,1.18,21.1,M,46.6,M,0000,0000*6C
$GPGSA,A,3,17,13,23,32,11,20,31,,,,,,1.89,1.18,1.48*03
$GPGSV,3,1,09,20,74,317,39,11,67,166,45,23,50,199,41,17,36,292,36*72
$GPGSV,3,2,09,33,31,217,27,31,25,074,40,32,21,071,36,13,13,210,19*7A
$GPGSV,3,3,09,04,03,308,*4C
$GPRMC,111757.000,A,4409.1771,N,01215.9108,E,6.24,311.30,050408,,,D*68
$GPGGA,111758.000,4409.1783,N,01215.9091,E,2,7,1.18,21.3,M,46.6,M,0000,0000*6D
$GPRMC,111758.000,A,4409.1783,N,01215.9091,E,6.24,311.50,050408,,,D*6D
$GPGGA,111759.000,4409.1794,N,01215.9075,E,2,7,1.18,21.6,M,46.6,M,0000,0000*65
$GPRMC,111759.000,A,4409.1794,N,01215.9075,E,6.14,312.39,050408,,,D*6F
$GPGGA,111800.000,4409.1804,N,01215.9056,E,2,7,1.18,21.8,M,46.6,M,0000,0000*6F
$GPGSA,A,3,17,13,23,32,11,20,31,,,,,,1.89,1.18,1.48*03
$GPGSV,3,1,09,20,74,317,39,11,67,166,45,23,50,199,46,17,36,292,34*77
$GPGSV,3,2,09,33,31,217,34,31,25,074,41,32,21,071,38,13,13,210,20*7D
$GPGSV,3,3,09,04,03,308,*4C
$GPRMC,111800.000,A,4409.1804,N,01215.9056,E,6.00,309.85,050408,,,D*63
$GPGGA,111801.000,4409.1816,N,01215.9038,E,2,7,1.18,22.3,M,46.6,M,0000,0000*6D
$GPRMC,111801.000,A,4409.1816,N,01215.9038,E,6.41,309.99,050408,,,D*61
$GPGGA,111802.000,4409.1825,N,01215.9019,E,2,7,1.18,21.7,M,46.6,M,0000,0000*6A
$GPRMC,111802.000,A,4409.1825,N,01215.9019,E,6.26,310.76,050408,,,D*69
$GPGGA,111803.000,4409.1835,N,01215.9001,E,2,7,1.18,22.0,M,46.6,M,0000,0000*67
$GPGSA,A,3,17,13,23,32,11,20,31,,,,,,1.89,1.18,1.48*03
$GPGSV,3,1,09,20,74,317,35,11,67,166,43,23,50,199,46,17,36,292,33*7A
$GPGSV,3,2,09,33,31,217,25,31,25,074,40,32,21,071,39,13,13,210,32*7E
$GPGSV,3,3,09,04,03,308,*4C
$GPRMC,111803.000,A,4409.1835,N,01215.9001,E,6.10,309.95,050408,,,D*60
$GPGGA,111804.000,4409.1846,N,01215.8983,E,2,7,1.18,22.2,M,46.6,M,0000,0000*64
$GPRMC,111804.000,A,4409.1846,N,01215.8983,E,6.12,313.56,050408,,,D*67
$GPGGA,111805.000,4409.1858,N,01215.8964,E,2,7,1.18,22.5,M,46.6,M,0000,0000*64
$GPRMC,111805.000,A,4409.1858,N,01215.8964,E,6.66,311.88,050408,,,D*62
$GPGGA,111806.000,4409.1871,N,01215.8943,E,2,7,1.18,23.2,M,46.6,M,0000,0000*6F
$GPGSA,A,3,17,13,23,32,11,20,31,,,,,,1.89,1.18,1.48*03
$GPGSV,3,1,09,20,74,317,36,11,67,166,44,23,50,199,36,17,36,292,35*7F
$GPGSV,3,2,09,33,31,217,30,31,25,074,40,32,21,071,37,13,13,210,29*7E
$GPGSV,3,3,09,04,03,308,*4C
$GPRMC,111806.000,A,4409.1871,N,01215.8943,E,6.14,306.55,050408,,,D*6C
$GPGGA,111807.000,4409.1878,N,01215.8923,E,2,7,1.18,23.1,M,46.6,M,0000,0000*62
$GPRMC,111807.000,A,4409.1878,N,01215.8923,E,6.42,309.26,050408,,,D*6A
$GPGGA,111808.000,4409.1889,N,01215.8903,E,2,7,1.18,23.2,M,46.6,M,0000,0000*62
$GPRMC,111808.000,A,4409.1889,N,01215.8903,E,6.44,304.39,050408,,,D*6C
$GPGGA,111809.000,4409.1902,N,01215.8886,E,2,7,1.18,23.7,M,46.6,M,0000,0000*68
$GPGSA,A,3,17,13,23,32,11,20,31,,,,,,1.89,1.18,1.48*03
$GPGSV,3,1,09,20,74,317,36,11,67,166,45,23,50,199,43,17,36,292,28*70
$GPGSV,3,2,09,31,25,073,40,32,21,071,33,44,17,117,,13,13,210,26*76
$GPGSV,3,3,09,04,03,308,*4C
$GPRMC,111809.000,A,4409.1902,N,01215.8886,E,5.96,313.07,050408,,,D*64
$GPGGA,111810.000,4409.1913,N,01215.8871,E,2,7,1.18,24.1,M,46.6,M,0000,0000*69
$GPRMC,111810.000,A,4409.1913,N,01215.8871,E,5.92,311.60,050408,,,D*63
$GPGGA,111811.000,4409.1924,N,01215.8857,E,2,7,1.18,25.2,M,46.6,M,0000,0000*6A
$GPRMC,111811.000,A,4409.1924,N,01215.8857,E,6.63,309.53,050408,,,D*66
$GPGGA,111812.000,4409.1933,N,01215.8838,E,2,7,1.18,25.0,M,46.6,M,0000,0000*64
$GPGSA,A,3,17,13,23,32,11,20,31,,,,,,1.89,1.18,1.48*03
$GPGSV,3,1,09,20,74,317,38,11,67,166,45,23,50,199,43,17,36,292,29*7F
$GPGSV,3,2,09,31,25,073,30,32,21,071,30,13,13,210,32,04,03,308,*7A
$GPGSV,3,3,09,36,,,*75
$GPRMC,111812.000,A,4409.1933,N,01215.8838,E,5.53,309.33,050408,,,D*6C
$GPGGA,111813.000,4409.1943,N,01215.8822,E,2,7,1.16,25.1,M,46.6,M,0000,0000*66
$GPRMC,111813.000,A,4409.1943,N,01215.8822,E,5.19,311.11,050408,,,D*66
$GPGGA,111814.000,4409.1954,N,01215.8809,E,2,7,1.16,26.2,M,46.6,M,0000,0000*6E
$GPRMC,111814.000,A,4409.1954,N,01215.8809,E,5.80,311.54,050408,,,D*6F
$GPGGA,111815.000,4409.1965,N,01215.8792,E,2,7,1.16,26.4,M,46.6,M,0000,0000*66
$GPGSA,A,3,17,13,23,32,11,20,31,,,,,,1.43,1.16,0.83*0D
$GPGSV,3,1,09,20,74,317,38,11,67,166,45,23,50,199,41,17,36,292,33*76
$GPGSV,3,2,09,31,25,073,31,32,21,071,28,13,13,210,27,04,03,308,*76
$GPGSV,3,3,09,38,,,*7B
$GPRMC,111815.000,A,4409.1965,N,01215.8792,E,5.47,314.33,050408,,,D*6E
$GPGGA,111816.000,4409.1973,N,01215.8774,E,2,7,1.18,26.9,M,46.6,M,0000,0000*69
$GPRMC,111816.000,A,4409.1973,N,01215.8774,E,4.50,310.49,050408,,,D*6C
$GPGGA,111817.000,4409.1980,N,01215.8764,E,2,7,1.16,27.2,M,46.6,M,0000,0000*61
$GPRMC,111817.000,A,4409.1980,N,01215.8764,E,3.52,310.93,050408,,,D*62
$GPGGA,111818.000,4409.1990,N,01215.8757,E,2,7,1.16,28.2,M,46.6,M,0000,0000*60
$GPGSA,A,3,17,13,23,32,11,20,31,,,,,,1.43,1.16,0.83*0D
$GPGSV,3,1,09,20,74,317,38,11,67,166,44,23,50,199,27,17,36,292,32*76
$GPGSV,3,2,09,31,25,073,32,32,21,071,26,13,13,210,26,04,03,308,18*73
$GPGSV,3,3,09,40,,,31*76
$GPRMC,111818.000,A,4409.1990,N,01215.8757,E,4.61,311.62,050408,,,D*64
$GPGGA,111819.000,4409.2000,N,01215.8742,E,2,7,1.18,28.7,M,46.6,M,0000,0000*6D
$GPRMC,111819.000,A,4409.2000,N,01215.8742,E,4.58,312.20,050408,,,D*6D
$GPGGA,111820.000,4409.2006,N,01215.8723,E,2,7,1.18,29.3,M,46.6,M,0000,0000*63
$GPRMC,111820.000,A,4409.2006,N,01215.8723,E,5.54,311.19,050408,,,D*62
$GPGGA,111821.000,4409.2009,N,01215.8702,E,2,7,1.18,27.2,M,46.6,M,0000,0000*61
$GPGSA,A,3,17,13,23,32,11,20,31,,,,,,1.89,1.18,1.48*03
$GPGSV,3,1,09,20,74,317,39,11,67,166,45,23,50,199,44,17,36,292,30*71
$GPGSV,3,2,09,31,25,073,35,32,21,071,26,13,13,210,35,04,03,308,19*77
$GPGSV,3,3,09,40,,,27*71
$GPRMC,111821.000,A,4409.2009,N,01215.8702,E,5.75,310.33,050408,,,D*65
$GPGGA,111822.000,4409.2016,N,01215.8680,E,2,7,1.18,25.6,M,46.6,M,0000,0000*61
$GPRMC,111822.000,A,4409.2016,N,01215.8680,E,5.81,313.50,050408,,,D*6E
$GPGGA,111823.000,4409.2026,N,01215.8664,E,2,7,1.18,25.2,M,46.6,M,0000,0000*6D
$GPRMC,111823.000,A,4409.2026,N,01215.8664,E,5.90,309.15,050408,,,D*6C
$GPGGA,111824.000,4409.2037,N,01215.8655,E,2,7,1.18,25.6,M,46.6,M,0000,0000*6C
$GPGSA,A,3,17,13,23,32,11,20,31,,,,,,1.89,1.18,1.48*03
$GPGSV,3,1,09,20,74,317,41,11,67,166,45,23,50,199,34,17,36,292,30*79
$GPGSV,3,2,09,31,25,073,35,32,21,071,26,13,13,210,29,04,03,308,18*7B
$GPGSV,3,3,09,40,,,28*7E
$GPRMC,111824.000,A,4409.2037,N,01215.8655,E,5.51,320.22,050408,,,D*6B
$GPGGA,111825.000,4409.2049,N,01215.8643,E,2,7,1.18,25.6,M,46.6,M,0000,0000*63
